{
    "data": [
        {
            "id": "0GJcws44NSPsDHAuxJhW",
            "latitude": 41.066666,
            "longitude": 14.333333,
            "name": "Campania",
            "country": "IT"
        },
        {
            "latitude": 20.9517,
            "longitude": 85.0985,
            "name": "Odisha",
            "country": "IN",
            "id": "0VG7S6aaK4eSo59fL9JO"
        },
        {
            "latitude": 11.7401,
            "longitude": 92.6586,
            "name": "Andaman and Nicobar Islands",
            "country": "IN",
            "id": "0jStOpTUNRaQYJqgmRoK"
        },
        {
            "latitude": 25.315058,
            "longitude": 51.145517,
            "name": "Qatar",
            "country": "QA",
            "id": "0m4aECS0Z2DGFEr8ldgI"
        },
        {
            "latitude": 22.9868,
            "longitude": 87.855,
            "name": "West Bengal",
            "country": "IN",
            "id": "0n54EMSDJcRoT1QEvw80"
        },
        {
            "latitude": 22.9734,
            "longitude": 78.6569,
            "name": "Madhya Pradesh",
            "country": "IN",
            "id": "0s18o5DrDAHjbu5MFcrj"
        },
        {
            "latitude": 37.0902,
            "longitude": -95.7129,
            "name": "Unknown US state",
            "country": "US",
            "id": "0tFoopNTs6e4tOoaltu2"
        },
        {
            "latitude": 35.64249,
            "longitude": 108.472214,
            "name": "Shaanxi",
            "country": "CN",
            "id": "0x2HLhr5z5xAtEdO4iZm"
        },
        {
            "id": "19MvIhipqTyYv1H37Upw",
            "latitude": 41.643351,
            "longitude": 21.668393,
            "name": "North Macedonia",
            "country": "MK"
        },
        {
            "id": "1DOMOmCWDtva46OVSZLv",
            "latitude": 53.1355,
            "longitude": -57.6604,
            "name": "Newfoundland and Labrador",
            "country": "CA"
        },
        {
            "latitude": 35.801933,
            "longitude": 96.779286,
            "name": "Qinghai",
            "country": "CN",
            "id": "1Fap7rZu9SIRqf5TG9Dg"
        },
        {
            "latitude": 44.9,
            "longitude": 8.206944,
            "name": "Piemonte",
            "country": "IT",
            "id": "1eTSQyfp8RoDPeFrIwun"
        },
        {
            "latitude": -14.235004,
            "longitude": -51.925282,
            "name": "Brazil",
            "country": "BR",
            "id": "1f0YoV0vAcexEhpESyZc"
        },
        {
            "latitude": 47.4116,
            "longitude": 28.3699,
            "name": "Moldova",
            "country": "MD",
            "id": "1qTPB8X3tyLyIdsb5TN3"
        },
        {
            "latitude": 30.15336,
            "longitude": 88.787865,
            "name": "Tibet",
            "country": "CN",
            "id": "25qIBtsW2nfQj3pwBKg9"
        },
        {
            "latitude": -1.572184,
            "longitude": 115.66779,
            "name": "Indonesia",
            "country": "ID",
            "id": "2KHYUb5t3lwzVVmDjwNX"
        },
        {
            "latitude": 43.807191,
            "longitude": -120.585594,
            "name": "Oregon",
            "country": "US",
            "id": "2OrsssmGUs4XCzaZzvTv"
        },
        {
            "latitude": 43.851921,
            "longitude": 126.548103,
            "name": "Jilin",
            "country": "CN",
            "id": "2jxHvSsxdnom0nPNvOT8"
        },
        {
            "longitude": -5.3536,
            "name": "Gibraltar",
            "country": "GI",
            "id": "2p11BjSAs3wVyymgqBOe",
            "latitude": 36.1408
        },
        {
            "longitude": 1.6751,
            "name": "Centre-Val de Loire",
            "country": "FR",
            "id": "2sLNkkHpyaHx7dD3aMDO",
            "latitude": 47.7516
        },
        {
            "id": "319tiZOMczx1y0DfvOib",
            "latitude": 42.565044,
            "longitude": 12.643751,
            "name": "Umbria",
            "country": "IT"
        },
        {
            "latitude": 51.1657,
            "longitude": 10.4515,
            "name": "Deutschland",
            "country": "DE",
            "id": "321X89hv9Zm8QyXGHYjy"
        },
        {
            "latitude": -13.133896,
            "longitude": 27.849332,
            "name": "Zambia",
            "country": "ZM",
            "id": "3IlPjAbP5qVMn1nlgLTJ"
        },
        {
            "latitude": 42.7044,
            "longitude": 19.3958,
            "name": "Montenegro",
            "country": "ME",
            "id": "3LstMSN5XMYBkxbe5HN7"
        },
        {
            "latitude": -35.4735,
            "longitude": 149.0124,
            "name": "Australian Capital Territory",
            "country": "AU",
            "id": "3OZoQsKrzxZ18EKyfGE6"
        },
        {
            "id": "3fC3bAyIRUquOQOEnQNe",
            "latitude": 40.4173,
            "longitude": -82.9071,
            "name": "Ohio",
            "country": "US"
        },
        {
            "id": "4NnFMekRK2m14IlnZZoj",
            "latitude": 21.0079,
            "longitude": -10.9408,
            "name": "Mauritania",
            "country": "MR"
        },
        {
            "latitude": 53.7267,
            "longitude": -127.6476,
            "name": "British Columbia",
            "country": "CA",
            "id": "4hfZRUoUgI4a3vrG0GBk"
        },
        {
            "id": "4rQLxUCMmQLpbi6E9tbH",
            "latitude": 41.065877,
            "longitude": -7.920053,
            "name": "Portugal",
            "country": "PT"
        },
        {
            "latitude": 40.3426,
            "longitude": 47.93802,
            "name": "Azerbaijan",
            "country": "AZ",
            "id": "4zqzRm2xHn0CDVOUQJ8p"
        },
        {
            "latitude": 25.025885,
            "longitude": -78.035889,
            "name": "Bahamas",
            "country": "BS",
            "id": "5MHegCUO9L3LiAU7DDey"
        },
        {
            "id": "5N16a2OXXRpsEFanw0TC",
            "latitude": -31.253218,
            "longitude": 146.921097,
            "name": "New South Wales",
            "country": "AU"
        },
        {
            "latitude": -20.9043045,
            "longitude": 165.618042,
            "name": "New Caledonia",
            "country": "NC",
            "id": "5fg04eyDwFw3kEXnrxez"
        },
        {
            "id": "5gXZIjRgAvd6xWN1LOv8",
            "latitude": 28.394857,
            "longitude": 84.124008,
            "name": "Nepal",
            "country": "NP"
        },
        {
            "latitude": 12.879721,
            "longitude": 121.774017,
            "name": "Philippines",
            "country": "PH",
            "id": "5pwmh7aSdGRKqRbnuyc0"
        },
        {
            "latitude": -17.824858,
            "longitude": 31.053028,
            "name": "Zimbabwe",
            "country": "ZW",
            "id": "5qtR9nx4BLwu1ODTniaY"
        },
        {
            "latitude": 55.621011,
            "longitude": 23.804991,
            "name": "Lithuania",
            "country": "LT",
            "id": "694ON7d0mRJDeM1gHBTR"
        },
        {
            "latitude": 22.396427,
            "longitude": 114.109497,
            "name": "Hong Kong",
            "country": "HK",
            "id": "6IcHIIH0zXpY0POmBZTv"
        },
        {
            "latitude": 9.3077,
            "longitude": 2.3158,
            "name": "Benin",
            "country": "BJ",
            "id": "6SlpghTyB6lpMFvx3g9U"
        },
        {
            "latitude": 45.6667,
            "longitude": 9.5,
            "name": "Lombardia",
            "country": "IT",
            "id": "6ZHcvMIzVWIaRnc4R3Qp"
        },
        {
            "latitude": 46.0569,
            "longitude": 14.5058,
            "name": "Slovenia",
            "country": "SI",
            "id": "6ahNiyKDSDAftCctgLH3"
        },
        {
            "latitude": -0.8037,
            "longitude": 11.6094,
            "name": "Gabon",
            "country": "GA",
            "id": "6pBi38TUgYfFm0bry2uh"
        },
        {
            "latitude": 17.901672,
            "longitude": -62.818544,
            "name": "Saint-Barthélémy",
            "country": "FR",
            "id": "78Ox26bNHDA2Pk2b3Uwn"
        },
        {
            "id": "7hVFcEV7nV0MrQr3LHrl",
            "latitude": 17.0608,
            "longitude": -61.7964,
            "name": "Antigua and Barbuda",
            "country": "AG"
        },
        {
            "latitude": 48.7904,
            "longitude": 11.4979,
            "name": "Bayern",
            "country": "DE",
            "id": "7kCrrlOBE3jN6FtOVNUB"
        },
        {
            "id": "7rYC2iFB50c55Ihgbs4Q",
            "latitude": 47.4979,
            "longitude": 19.0402,
            "name": "Hungary",
            "country": "HU"
        },
        {
            "id": "8C0d7WVCjyUGtnc2gUAR",
            "latitude": 7.3697,
            "longitude": 12.3547,
            "name": "Cameroon",
            "country": "CM"
        },
        {
            "id": "8RihJrXw4NQXPxaRxr1u",
            "latitude": -16.2902,
            "longitude": -63.5887,
            "name": "Bolivia",
            "country": "BO"
        },
        {
            "id": "8ZTySQROQejkDAad0qxQ",
            "latitude": 12.9843,
            "longitude": -61.2872,
            "name": "St. Vincent Grenadines",
            "country": "VC"
        },
        {
            "latitude": 1.352083,
            "longitude": 103.819839,
            "name": "Singapore",
            "country": "SG",
            "id": "8pA3fM4xC2c2wv1b4TnE"
        },
        {
            "latitude": 47.2184,
            "longitude": -1.5536,
            "name": "Pays de la Loire",
            "country": "FR",
            "id": "98hwAoohgWEOQVa3NlM5"
        },
        {
            "latitude": 12.8628,
            "longitude": 30.2176,
            "name": "Sudan",
            "country": "SD",
            "id": "9DPOkpIqrFy9mR4e9fuv"
        },
        {
            "latitude": 45.943161,
            "longitude": 24.966761,
            "name": "Romania",
            "country": "RO",
            "id": "9QcETqEcM2fTv9zRvx5T"
        },
        {
            "id": "9Y5wmCqNCC6ZrenM31uA",
            "latitude": 12.136389,
            "longitude": -86.251389,
            "name": "Nicaragua",
            "country": "NI"
        },
        {
            "latitude": 61.92411,
            "longitude": 25.748152,
            "name": "Finland",
            "country": "FI",
            "id": "9p6OCdZbUUwBLA60Gk3W"
        },
        {
            "latitude": 43.311643,
            "longitude": -71.590315,
            "name": "New Hampshire",
            "country": "US",
            "id": "A84CwQ52kA46Hr7pn6Bm"
        },
        {
            "latitude": 41.823261,
            "longitude": -71.412257,
            "name": "Rhode Island",
            "country": "US",
            "id": "AEUWUHS65qvjEslew11c"
        },
        {
            "longitude": 11.327591,
            "name": "Emilia Romagna",
            "country": "IT",
            "id": "AJ9jQ0iyKsafsmf5yHAR",
            "latitude": 44.498955
        },
        {
            "latitude": 49.3964,
            "longitude": 7.023,
            "name": "Saarland",
            "country": "DE",
            "id": "AKjFRQGnzuuZQhv5Qwx7"
        },
        {
            "latitude": 71.7069,
            "longitude": -42.6043,
            "name": "Greenland",
            "country": "GL",
            "id": "APaZzlGCEeuoLBtzTJMe"
        },
        {
            "latitude": 45.65107,
            "longitude": -63.582687,
            "name": "Nova Scotia",
            "country": "CA",
            "id": "AVCpxeh0fuH2WrHWNDYH"
        },
        {
            "longitude": -109.128641,
            "name": "Montana",
            "country": "US",
            "id": "AcULcZBozObOhwuRKMjJ",
            "latitude": 47.012918
        },
        {
            "latitude": 27.285971,
            "longitude": 116.01609,
            "name": "Jiangxi",
            "country": "CN",
            "id": "AmBYm5J6E9Cuez1FQjiN"
        },
        {
            "latitude": 28.033886,
            "longitude": 1.659626,
            "name": "Algeria",
            "country": "DZ",
            "id": "AwN0CScPDApcLFgz6e3z"
        },
        {
            "latitude": 45.099998,
            "longitude": 15.2,
            "name": "Croatia",
            "country": "HR",
            "id": "B82Ef45M8cDu4q7VsSHF"
        },
        {
            "latitude": 17.6077881,
            "longitude": 8.081666,
            "name": "Niger",
            "country": "NE",
            "id": "BENubqQInFUJzhpZTsLT"
        },
        {
            "latitude": 39.509109,
            "longitude": -76.98432,
            "name": "Maryland",
            "country": "US",
            "id": "BF51mWl51fgEcyBpCSzb"
        },
        {
            "latitude": 53.709808,
            "longitude": 27.953388,
            "name": "Belarus",
            "country": "BY",
            "id": "BGg6yVU5VP71B8NXU0oh"
        },
        {
            "latitude": 48.8799,
            "longitude": 0.1713,
            "name": "Normandie",
            "country": "FR",
            "id": "BGtoyzb7y54LVlJ91rbf"
        },
        {
            "id": "BTEESCuD2ZbS1afunR2A",
            "latitude": 34.048927,
            "longitude": -111.093735,
            "name": "Arizona",
            "country": "US"
        },
        {
            "latitude": 40.719042,
            "longitude": -73.982597,
            "name": "New York",
            "country": "US",
            "id": "C3BCUzV80z9GfiuByIcr"
        },
        {
            "id": "C6S76AggdWVU8G22jFHQ",
            "latitude": 49.731626,
            "longitude": 15.359413,
            "name": "Czechia",
            "country": "CZ"
        },
        {
            "latitude": 26.0667,
            "longitude": 50.557701,
            "name": "Bahrain",
            "country": "BH",
            "id": "C7cj4nwRITs13KnaJrQ2"
        },
        {
            "latitude": 27.0238,
            "longitude": 74.2179,
            "name": "Rajasthan",
            "country": "IN",
            "id": "CKZCZTPlrcq5fbfUPA9k"
        },
        {
            "latitude": 13.803,
            "longitude": -88.9053,
            "name": "El Salvador",
            "country": "SV",
            "id": "Cgvmtle61ehMvCzRzYx7"
        },
        {
            "id": "CrXu6i5Sqx11iwdfHfBs",
            "latitude": 52.355518,
            "longitude": -1.17432,
            "name": "United Kingdom",
            "country": "GB"
        },
        {
            "latitude": 40.259003,
            "longitude": 44.818474,
            "name": "Armenia",
            "country": "AM",
            "id": "DCJCtZoBTWQ4mzdDNljD"
        },
        {
            "latitude": 22.192039,
            "longitude": 113.551262,
            "name": "Macao",
            "country": "MO",
            "id": "DdBt8qsG6A3g92oOR3ow"
        },
        {
            "latitude": 42.962334,
            "longitude": -107.534868,
            "name": "Wyoming",
            "country": "US",
            "id": "DrGzziUglmBognCGY7R2"
        },
        {
            "longitude": 22.9444,
            "name": "Greece",
            "country": "GR",
            "id": "Dtr1lap1RpJpXJdXGJiW",
            "latitude": 40.6401
        },
        {
            "id": "EKTfs8e7M6DXzI1HqyyX",
            "latitude": 25.03841,
            "longitude": 121.563698,
            "name": "Taiwan",
            "country": "TW"
        },
        {
            "latitude": 10.327273,
            "longitude": -84.387618,
            "name": "Costa Rica",
            "country": "CR",
            "id": "EQzJvzVHKjs8kLmK7BMu"
        },
        {
            "latitude": 22.2587,
            "longitude": 71.1924,
            "name": "Gujarat",
            "country": "IN",
            "id": "ERwk9R9en4m9WbdoMbIg"
        },
        {
            "latitude": 30.7333,
            "longitude": 76.7794,
            "name": "Chandigarh",
            "country": "IN",
            "id": "Esl5UlCVB9s8pmGB5Ofr"
        },
        {
            "latitude": 18.200178,
            "longitude": -66.664513,
            "name": "Puerto Rico",
            "country": "PR",
            "id": "F4rPrEVGAIMM5rfPEMv4"
        },
        {
            "id": "FCDmlmnIIswd8bQiUjfN",
            "latitude": 33.93911,
            "longitude": 67.709953,
            "name": "Afghanistan",
            "country": "AF"
        },
        {
            "longitude": 106.912254,
            "name": "Chongqing",
            "country": "CN",
            "id": "FErOU1m4Tj7jIkRam3vF",
            "latitude": 29.431585
        },
        {
            "latitude": 29.311661,
            "longitude": 47.481766,
            "name": "Kuwait",
            "country": "KW",
            "id": "FZsUkhxBEgqsPb4eO0PN"
        },
        {
            "latitude": 11.1271,
            "longitude": 78.6569,
            "name": "Tamil Nadu",
            "country": "IN",
            "id": "FeS45oMNC27pI17F0xEV"
        },
        {
            "latitude": 18.947829,
            "longitude": -70.430399,
            "name": "Dominican Republic",
            "country": "DO",
            "id": "FuiVEJvWb0QMCpxJ3563"
        },
        {
            "id": "FyC551oNwmENxbr9Yght",
            "latitude": 18.1124,
            "longitude": 79.0193,
            "name": "Telengana",
            "country": "IN"
        },
        {
            "latitude": 48.669,
            "longitude": 19.699,
            "name": "Slovakia",
            "country": "SK",
            "id": "FzIDXoqWnTI3nUfhPyT2"
        },
        {
            "longitude": 69.345116,
            "name": "Pakistan",
            "country": "PK",
            "id": "GAp7Wb6IMhdgbvEtMza9",
            "latitude": 30.37532
        },
        {
            "latitude": 31.1471,
            "longitude": 75.3412,
            "name": "Punjab",
            "country": "IN",
            "id": "GGru8cG08mANO8XDDUtZ"
        },
        {
            "longitude": 53.847816,
            "name": "United Arab Emirates",
            "country": "AE",
            "id": "GHzBIsHy2GiBc5JV2HMs",
            "latitude": 23.424076
        },
        {
            "latitude": 36.621981,
            "longitude": -119.339046,
            "name": "California",
            "country": "US",
            "id": "Gh46r6vuaY7fbGt3IboN"
        },
        {
            "latitude": 35.87189,
            "longitude": -97.145514,
            "name": "Oklahoma",
            "country": "US",
            "id": "GpF8ULuKOQiFDCUHN44h"
        },
        {
            "latitude": 46.5,
            "longitude": 11.35,
            "name": "P.A. Bolzano",
            "country": "IT",
            "id": "Gzx6GX1qhBm714BkEC6l"
        },
        {
            "longitude": 113.750972,
            "name": "Inner Mongolia",
            "country": "CN",
            "id": "H3JeVigVbo5CSYfZG4WI",
            "latitude": 42.83263
        },
        {
            "latitude": 39.74536,
            "longitude": -116.724977,
            "name": "Nevada",
            "country": "US",
            "id": "H3bDg4eV30up4WWrIDAS"
        },
        {
            "latitude": 15.3173,
            "longitude": 75.7139,
            "name": "Karnataka",
            "country": "IN",
            "id": "HN5mGmxlqlSeFSNeu1K5"
        },
        {
            "latitude": 27.5142,
            "longitude": 90.4336,
            "name": "Bhutan",
            "country": "BT",
            "id": "HRDpwyxpqW9RN0xLFyNu"
        },
        {
            "latitude": 41.3775,
            "longitude": 64.5853,
            "name": "Uzbekistan",
            "country": "UZ",
            "id": "HRTA10dtrruDEwjJEGMp"
        },
        {
            "latitude": 34.138916,
            "longitude": -105.576255,
            "name": "New Mexico",
            "country": "US",
            "id": "HSSFomRju0doHhWgW8On"
        },
        {
            "id": "He1gSS1v50t06i3YrqvB",
            "latitude": 53.6127,
            "longitude": 12.4296,
            "name": "Mecklenburg-Vorpommern",
            "country": "DE"
        },
        {
            "latitude": 23.634501,
            "longitude": -102.552788,
            "name": "Mexico",
            "country": "MX",
            "id": "I4OJ6z9Vjs1byOcbsJrd"
        },
        {
            "latitude": 42.25,
            "longitude": 13.75,
            "name": "Abruzzo",
            "country": "IT",
            "id": "I9EqrZfbPnkioNU4wZGz"
        },
        {
            "latitude": 23.363855,
            "longitude": 113.373448,
            "name": "Guangdong",
            "country": "CN",
            "id": "IAX0OQLVnUwU7FX0ENF1"
        },
        {
            "id": "IFuMrMvSjoiX5agYvllh",
            "latitude": 33.875408,
            "longitude": 113.484016,
            "name": "Henan",
            "country": "CN"
        },
        {
            "latitude": 19.0558,
            "longitude": -73.0513,
            "name": "Haiti",
            "country": "HT",
            "id": "InZ38sIqyK7FN7XAOZoX"
        },
        {
            "latitude": 32.528564,
            "longitude": -83.280125,
            "name": "Georgia (US)",
            "country": "US",
            "id": "IvQkDJkTAsoIqPRAU25n"
        },
        {
            "latitude": -42.8285,
            "longitude": 172.488081,
            "name": "New Zealand",
            "country": "NZ",
            "id": "IvVhpOoGpH6JVkGyUhXN"
        },
        {
            "latitude": 6.4238,
            "longitude": -66.5897,
            "name": "Venezuela",
            "country": "VE",
            "id": "J3mZXlfEnnJx4CDZLvRG"
        },
        {
            "latitude": 35.1264,
            "longitude": 33.4299,
            "name": "Cyprus",
            "country": "CY",
            "id": "JQByE4l2OA6sGOqIcWrM"
        },
        {
            "id": "JR7hOGked7CZtIs2nCV5",
            "latitude": 25.0961,
            "longitude": 85.3131,
            "name": "Bihar",
            "country": "IN"
        },
        {
            "id": "JUWE6bG3b5oL7fKQMSvv",
            "latitude": 14.628434,
            "longitude": -90.522713,
            "name": "Guatemala",
            "country": "GT"
        },
        {
            "latitude": 49.8153,
            "longitude": 6.1296,
            "name": "Luxembourg",
            "country": "LU",
            "id": "JcFsHSn2WvZ5LJW42ovG"
        },
        {
            "latitude": 8.6195,
            "longitude": 0.8248,
            "name": "Togo",
            "country": "TG",
            "id": "JrBbirlBKGdWSdcDt7PF"
        },
        {
            "latitude": 42.7339,
            "longitude": 25.4858,
            "name": "Bulgaria",
            "country": "BG",
            "id": "JzZ8sbqzjutThVjkPKPL"
        },
        {
            "latitude": 44.5,
            "longitude": 8.833,
            "name": "Liguria",
            "country": "IT",
            "id": "KLXicxFogWnu0dLp4bNK"
        },
        {
            "latitude": 43.4167,
            "longitude": 11,
            "name": "Toscana",
            "country": "IT",
            "id": "KrLrJbpDqqiXgUPGCCW9"
        },
        {
            "latitude": 7.873054,
            "longitude": 80.771797,
            "name": "Sri Lanka",
            "country": "LK",
            "id": "KsWzJO06cf0d6LJ4ZNh9"
        },
        {
            "latitude": 15.9129,
            "longitude": 79.74,
            "name": "Andhra Pradesh",
            "country": "IN",
            "id": "KtQIo2DoqjELtPAlyDVO"
        },
        {
            "latitude": 61.52401,
            "longitude": 105.318756,
            "name": "Russia",
            "country": "RU",
            "id": "KwOuGBKSMRlmwftxAvLX"
        },
        {
            "id": "LBUtrLDKJiupXjlUNTUe",
            "latitude": 18.0708,
            "longitude": -63.0501,
            "name": "Saint-Martin",
            "country": "FR"
        },
        {
            "latitude": 47.166,
            "longitude": 9.5554,
            "name": "Liechtenstein",
            "country": "LI",
            "id": "LTGEU2E9MFkrCcFhZYVk"
        },
        {
            "latitude": 9.9456,
            "longitude": -9.6966,
            "name": "Guinea",
            "country": "GN",
            "id": "LU2QWt5ao8IJa8evNYVV"
        },
        {
            "latitude": 3.9193051,
            "longitude": -56.0277824,
            "name": "Suriname",
            "country": "SR",
            "id": "LglKINHyQpYpFxjckbQ6"
        },
        {
            "latitude": 52.9399,
            "longitude": -106.4509,
            "name": "Saskatchewan",
            "country": "CA",
            "id": "LkIDKY0CMAqzbwBHyYCP"
        },
        {
            "longitude": -84.27,
            "name": "Kentucky",
            "country": "US",
            "id": "MC8MXFw9iXYybnF8v7e6",
            "latitude": 37.8393
        },
        {
            "id": "MOxDkmQ4wBi1CuAdVxDE",
            "latitude": 40.2672,
            "longitude": -86.1349,
            "name": "Indiana",
            "country": "US"
        },
        {
            "id": "MdQOfc1gNh2DOqwSP6UV",
            "latitude": 7.54,
            "longitude": -5.5471,
            "name": "Ivory Coast",
            "country": "CI"
        },
        {
            "id": "MjpYq3zQyAvSQlVVYjD2",
            "latitude": 51.4332,
            "longitude": 7.6616,
            "name": "Nordrhein-Westfalen",
            "country": "DE"
        },
        {
            "id": "MntmjjuHljarCdt6aIeE",
            "latitude": 37.330509,
            "longitude": 105.977203,
            "name": "Ningxia",
            "country": "CN"
        },
        {
            "latitude": 48.6616,
            "longitude": 9.3501,
            "name": "Baden-Württemberg",
            "country": "DE",
            "id": "N3XsRBwJSsNclkEf7Zz5"
        },
        {
            "id": "N7c13sCQF0G789XAVazJ",
            "latitude": 44.696652,
            "longitude": 17.824332,
            "name": "Bosnia and Herzegovina",
            "country": "BA"
        },
        {
            "latitude": 37.242565,
            "longitude": 111.856857,
            "name": "Shanxi",
            "country": "CN",
            "id": "NBRIGIRrJB1Ry8prDNAC"
        },
        {
            "latitude": 35.7596,
            "longitude": -79.0193,
            "name": "North Carolina",
            "country": "US",
            "id": "NC64Qp5kTqAfiTuR27k8"
        },
        {
            "id": "NJjo2gfBvnbK4xatrsUz",
            "latitude": 52.4125,
            "longitude": 12.5316,
            "name": "Brandenburg",
            "country": "DE"
        },
        {
            "id": "NMeZEcGToxXfpi16PfFV",
            "latitude": 30.0668,
            "longitude": 79.0193,
            "name": "Uttarakhand",
            "country": "IN"
        },
        {
            "latitude": 50.6521,
            "longitude": 9.1624,
            "name": "Hessen",
            "country": "DE",
            "id": "Nk5vPgUIXsWVfbWZf15O"
        },
        {
            "latitude": 56.96776,
            "longitude": 25.837107,
            "name": "Latvia",
            "country": "LV",
            "id": "NmmMKy0YqA8StHdGzB5N"
        },
        {
            "latitude": 6.4281,
            "longitude": -9.4295,
            "name": "Liberia",
            "country": "LR",
            "id": "O4g88K49HKEZLFXm5gxb"
        },
        {
            "longitude": -80.525613,
            "name": "South Carolina",
            "country": "US",
            "id": "ONU4CK8QjViFHKg2w5if",
            "latitude": 34.003307
        },
        {
            "longitude": -89.582775,
            "name": "Mississippi",
            "country": "US",
            "id": "OYa0jFzdbAgo8zUsRv6q",
            "latitude": 33.51822
        },
        {
            "latitude": 45.2538,
            "longitude": -69.4455,
            "name": "Maine",
            "country": "US",
            "id": "OcXNp9kNVSwrRlG3bNVN"
        },
        {
            "latitude": -41.915264,
            "longitude": 146.725256,
            "name": "Tasmania",
            "country": "AU",
            "id": "OnOseaqWdnuP18oruABW"
        },
        {
            "latitude": 19.3133,
            "longitude": -81.2546,
            "name": "Cayman Islands",
            "country": "KY",
            "id": "P4mwRFLbrvT0t75uD8Wo"
        },
        {
            "longitude": -62.1873665,
            "name": "Montserrat",
            "country": "MS",
            "id": "PEDkeFMTOZpvHiSVxBk7",
            "latitude": 16.7424984
        },
        {
            "latitude": -1.9403,
            "longitude": 29.8739,
            "name": "Rwanda",
            "country": "RW",
            "id": "PEcgZGEkyhABztt1Ufgc"
        },
        {
            "latitude": 46.7296,
            "longitude": -94.6859,
            "name": "Minnesota",
            "country": "US",
            "id": "PJvVYosLIhbcRZYnKX1R"
        },
        {
            "latitude": 40.6331,
            "longitude": -89.3985,
            "name": "Illinois",
            "country": "US",
            "id": "PTwQr9ijo0TBBsPH2sdJ"
        },
        {
            "longitude": -60.978893,
            "name": "Saint Lucia",
            "country": "LC",
            "id": "PjLqCeFdyzdZNcZxMkK1",
            "latitude": 13.909444
        },
        {
            "longitude": 9.460554,
            "name": "Tunisia",
            "country": "TN",
            "id": "Pr76V4raf108uSRoEXac",
            "latitude": 34.201507
        },
        {
            "latitude": -26.5225,
            "longitude": 31.4659,
            "name": "Eswatini",
            "country": "SZ",
            "id": "PuQgOd9KWiMzGZXm11sR"
        },
        {
            "latitude": -37.009609,
            "longitude": 143.94853,
            "name": "Victoria",
            "country": "AU",
            "id": "Q18mrGvFWTLX2BU9SqhQ"
        },
        {
            "latitude": 54.2194,
            "longitude": 9.6961,
            "name": "Schleswig-Holstein",
            "country": "DE",
            "id": "Q39XkabIYxt15mHINzTa"
        },
        {
            "latitude": 58.595272,
            "longitude": 25.013607,
            "name": "Estonia",
            "country": "EE",
            "id": "QR9go2hQKXjty7JHUYe4"
        },
        {
            "latitude": -6.315,
            "longitude": 143.9555,
            "name": "Papua New Guinea",
            "country": "PG",
            "id": "QlZrE4nosm5WfdA2aCDg"
        },
        {
            "id": "QqhD3YDMKXojvQY3Yu41",
            "latitude": 18.3358,
            "longitude": -64.8963,
            "name": "U.S. Virgin Islands",
            "country": "VI"
        },
        {
            "latitude": 15.414999,
            "longitude": -61.3709755,
            "name": "Dominica",
            "country": "DM",
            "id": "Qy2qW2ep5wltnYjPJBxh"
        },
        {
            "longitude": -80.7821,
            "name": "Panama",
            "country": "PA",
            "id": "R8YCgephnxTufvcPWMgx",
            "latitude": 8.538
        },
        {
            "latitude": 15.2,
            "longitude": -86.2419,
            "name": "Honduras",
            "country": "HN",
            "id": "RA2SE0p2bVhqo0P2hzGY"
        },
        {
            "id": "RCrDBCdBNYzgLNr0aB2H",
            "latitude": 45.633331,
            "longitude": 13.8,
            "name": "Friuli Venezia Giulia",
            "country": "IT"
        },
        {
            "latitude": 41.878,
            "longitude": -93.0977,
            "name": "Iowa",
            "country": "US",
            "id": "RX0KDu1AFrlCsrRso0nb"
        },
        {
            "id": "Rf4uvBfP3GRDSHdZElRd",
            "latitude": 39.0119,
            "longitude": -98.4842,
            "name": "Kansas",
            "country": "US"
        },
        {
            "id": "RmEgf1xeclWt7XCF9oiR",
            "latitude": 48.6998,
            "longitude": 6.1878,
            "name": "Grand Est",
            "country": "FR"
        },
        {
            "id": "Rx4TuyMpfGb3S8wYJX0x",
            "latitude": 51.2538,
            "longitude": -85.3232,
            "name": "Ontario",
            "country": "CA"
        },
        {
            "latitude": 14.652027,
            "longitude": -61.011715,
            "name": "Martinique",
            "country": "FR",
            "id": "SDdefnq1bc3ZNr7SpEsW"
        },
        {
            "latitude": 7.9465,
            "longitude": -1.0232,
            "name": "Ghana",
            "country": "GH",
            "id": "SG9VWLOV3x2JsTkXmVSz"
        },
        {
            "latitude": 46.818188,
            "longitude": 8.227512,
            "name": "Switzerland",
            "country": "CH",
            "id": "SGe9sCPayMqh6RsGFaBA"
        },
        {
            "latitude": 46.8139,
            "longitude": -71.208,
            "name": "Quebec",
            "country": "CA",
            "id": "SHoOE3NiJgWAlDVBzwYH"
        },
        {
            "latitude": 42.6026,
            "longitude": 20.903,
            "name": "Kosovo",
            "country": "XK",
            "id": "SMWvuMMuKp2QK7O2tNia"
        },
        {
            "longitude": 74.124,
            "name": "Goa",
            "country": "IN",
            "id": "SPcujsH2YlUaoAr8AiWF",
            "latitude": 15.2993
        },
        {
            "id": "SZdF624x0v1LlyzZjKFu",
            "latitude": 39,
            "longitude": 16.5,
            "name": "Calabria",
            "country": "IT"
        },
        {
            "latitude": 41.4925,
            "longitude": -99.9018,
            "name": "Nebraska",
            "country": "US",
            "id": "SakhKQzKu1LRI8laqdQq"
        },
        {
            "id": "SgHzWAAYK1j2sipovxM6",
            "latitude": -21.1151,
            "longitude": 55.5364,
            "name": "La Réunion",
            "country": "FR"
        },
        {
            "longitude": 104.990967,
            "name": "Cambodia",
            "country": "KH",
            "id": "SioMALgUbo7peXmbco2f",
            "latitude": 12.565679
        },
        {
            "id": "SsWhuEElU7dCTTuH5fdQ",
            "latitude": 13.4443,
            "longitude": 144.7937,
            "name": "Guam",
            "country": "GU"
        },
        {
            "latitude": -4.0383,
            "longitude": 21.7587,
            "name": "DR Congo",
            "country": "CD",
            "id": "T3iRf8mTUTAzbKrORTap"
        },
        {
            "latitude": 23.635796,
            "longitude": 44.344334,
            "name": "Saudi Arabia",
            "country": "SA",
            "id": "T7NffoeCgTUpAbOHvYwP"
        },
        {
            "latitude": 4.506106,
            "longitude": 114.650692,
            "name": "Brunei",
            "country": "BN",
            "id": "TQZmzsLhJqjtCSExAkCP"
        },
        {
            "id": "TT0MKODSjrxHvG19xZCa",
            "latitude": 45.4471,
            "longitude": 4.3853,
            "name": "Auvergne-Rhône-Alpes",
            "country": "FR"
        },
        {
            "latitude": 39.318928,
            "longitude": -105.461392,
            "name": "Colorado",
            "country": "US",
            "id": "Th4dlpXXmSDgi1OHs36P"
        },
        {
            "id": "Tup6oDCHj6DgqZR3nQ3x",
            "latitude": 12.2383,
            "longitude": -1.5616,
            "name": "Burkina Faso",
            "country": "BF"
        },
        {
            "latitude": 12.104818,
            "longitude": -61.670761,
            "name": "Grenada",
            "country": "GD",
            "id": "TvqURPN5xzVBXsmGP46N"
        },
        {
            "latitude": 55.675758,
            "longitude": 12.56902,
            "name": "Denmark",
            "country": "DK",
            "id": "Ty1AY3VLPJcRZgdBIERx"
        },
        {
            "latitude": 36.395859,
            "longitude": 118.769882,
            "name": "Shandong",
            "country": "CN",
            "id": "U0tkTJ9CGsBuFJ2Gdoum"
        },
        {
            "latitude": 43.94236,
            "longitude": 12.457777,
            "name": "San Marino",
            "country": "SM",
            "id": "U12rMD5GDW58Q0lIwrB1"
        },
        {
            "latitude": 36.204823,
            "longitude": 138.25293,
            "name": "Japan",
            "country": "JP",
            "id": "U13Gy4BpRLAZ95bPmBXd"
        },
        {
            "latitude": 1.3733,
            "longitude": 32.2903,
            "name": "Uganda",
            "country": "UG",
            "id": "UCZXEgnHtxUoChWLR6fQ"
        },
        {
            "id": "UIbrFy6kiTTF0D37Kqmp",
            "latitude": -11.2027,
            "longitude": 17.8739,
            "name": "Angola",
            "country": "AO"
        },
        {
            "latitude": 48.202,
            "longitude": -2.9326,
            "name": "Bretagne",
            "country": "FR",
            "id": "URKMlJ7OTNldjpaxFbjE"
        },
        {
            "latitude": 53.5511,
            "longitude": 9.9937,
            "name": "Hamburg",
            "country": "DE",
            "id": "UfFaUECHINUutv1M9tzq"
        },
        {
            "id": "UrF45V1VqMo6YBib2KlL",
            "latitude": -19.4914,
            "longitude": 132.551,
            "name": "Northern Territory",
            "country": "AU"
        },
        {
            "longitude": -63.0548286,
            "name": "Sint Maarten",
            "country": "SX",
            "id": "UsxgpiuFCtlR2CW1UUFm",
            "latitude": 18.0424805
        },
        {
            "latitude": 11.943179,
            "longitude": 79.808206,
            "name": "Puducherry",
            "country": "IN",
            "id": "V1qE740s3EUGyKGr6SVv"
        },
        {
            "latitude": 3.527606,
            "longitude": -72.998674,
            "name": "Colombia",
            "country": "CO",
            "id": "VAAmtxtDuCY0o55zRsOh"
        },
        {
            "latitude": 21.5218,
            "longitude": -77.7812,
            "name": "Cuba",
            "country": "CU",
            "id": "VAG9AcMABTf8oIAfELPh"
        },
        {
            "latitude": 25.181129,
            "longitude": 101.864143,
            "name": "Yunnan",
            "country": "CN",
            "id": "VIf8T8PD3ZzlzAm5eBCX"
        },
        {
            "id": "VcKcLdCkC6YpPfIDnRVD",
            "latitude": 26.8467,
            "longitude": 80.9462,
            "name": "Uttar Pradesh",
            "country": "IN"
        },
        {
            "latitude": 43.8927,
            "longitude": 3.2828,
            "name": "Occitanie",
            "country": "FR",
            "id": "WAnbFrEjtZDTCIYBt8rz"
        },
        {
            "latitude": 40.5,
            "longitude": 16.5,
            "name": "Basilicata",
            "country": "IT",
            "id": "WD502XimGXnWzqYg7zxL"
        },
        {
            "latitude": 24.6637,
            "longitude": 93.9063,
            "name": "Manipur",
            "country": "IN",
            "id": "WKsJQmcpWKxnp0nCwN77"
        },
        {
            "latitude": -30.5595,
            "longitude": 22.9375,
            "name": "South Africa",
            "country": "ZA",
            "id": "Whrue10NtwIObLvFFyBr"
        },
        {
            "latitude": 13.443182,
            "longitude": -15.3101387,
            "name": "Gambia",
            "country": "GM",
            "id": "Wk811YwpQxsOCfz8As86"
        },
        {
            "latitude": 23.685,
            "longitude": 90.3563,
            "name": "Bangladesh",
            "country": "BD",
            "id": "WpLayPPLIJ7VcHZdQaoM"
        },
        {
            "id": "X2iRhHF6f9pUnJcxPc3J",
            "latitude": 45.5,
            "longitude": 11.75,
            "name": "Veneto",
            "country": "IT"
        },
        {
            "latitude": 34.152588,
            "longitude": 77.577049,
            "name": "Ladakh",
            "country": "IN",
            "id": "X3PZqaJxtnlxcgP4tzya"
        },
        {
            "latitude": 25.92448,
            "longitude": 118.278992,
            "name": "Fujian",
            "country": "CN",
            "id": "XBBw0iMPrmiEu3qogkbi"
        },
        {
            "id": "XrsuLstdybIqIvv0E0aJ",
            "latitude": -32.5228,
            "longitude": -55.7658,
            "name": "Uruguay",
            "country": "UY"
        },
        {
            "latitude": 42.0396,
            "longitude": 9.0129,
            "name": "Corse",
            "country": "FR",
            "id": "YGXgIObKVabP2CYEdcb9"
        },
        {
            "longitude": 35.2332,
            "name": "Palestine",
            "country": "PS",
            "id": "YMzKw0SnXG71VT7H1jff",
            "latitude": 31.9522
        },
        {
            "longitude": -149.4937,
            "name": "Alaska",
            "country": "US",
            "id": "YaCODTMD1KKRnrAlkg2u",
            "latitude": 64.2008
        },
        {
            "latitude": 37.568291,
            "longitude": 126.99778,
            "name": "South Korea",
            "country": "KR",
            "id": "Yw9uBekNlefXBcOCNMfP"
        },
        {
            "latitude": 13.193887,
            "longitude": -59.543198,
            "name": "Barbados",
            "country": "BB",
            "id": "YzZqZMJGvG6joQCdiuXC"
        },
        {
            "latitude": 52.2297,
            "longitude": 21.0122,
            "name": "Poland",
            "country": "PL",
            "id": "ZAZNuCK1VweBaTLCFzCk"
        },
        {
            "latitude": -17.713371,
            "longitude": 178.065033,
            "name": "Fiji",
            "country": "FJ",
            "id": "ZmzOT0sJgfWXEpRImItC"
        },
        {
            "latitude": 41.6032,
            "longitude": -73.0877,
            "name": "Connecticut",
            "country": "US",
            "id": "Zqy0gftQzocR49jEJNMl"
        },
        {
            "id": "Zwbjs4XN7P9s849Q3zFj",
            "latitude": 43.616943,
            "longitude": 13.516667,
            "name": "Marche",
            "country": "IT"
        },
        {
            "id": "a9OgUWo6ZSWA3HyF0xnj",
            "latitude": 51.011,
            "longitude": 10.8453,
            "name": "Thüringen",
            "country": "DE"
        },
        {
            "latitude": -30.000233,
            "longitude": 136.209152,
            "name": "South Australia",
            "country": "AU",
            "id": "a9p9pAOsjg1WAjPGc2a6"
        },
        {
            "latitude": 37.9643,
            "longitude": -91.8318,
            "name": "Missouri",
            "country": "US",
            "id": "aPubGfQ8ToSEuKJldKRT"
        },
        {
            "latitude": 23.64407,
            "longitude": 108.26651,
            "name": "Guangxi",
            "country": "CN",
            "id": "aTa8MiBjtH3iY0SRs2HQ"
        },
        {
            "id": "adcBUeAYp6ey0ZXCzKNs",
            "latitude": 6.6111,
            "longitude": 20.9394,
            "name": "CAR",
            "country": "CF"
        },
        {
            "longitude": -78.6569,
            "name": "Virginia",
            "country": "US",
            "id": "afeZTVC1J1SMMNFxkrcc",
            "latitude": 37.4316
        },
        {
            "longitude": 116.407394,
            "name": "Beijing",
            "country": "CN",
            "id": "alj4hkxg9cjrTxOzwFKt",
            "latitude": 39.904202
        },
        {
            "id": "b7TwXX46FA0EmH1CjHET",
            "latitude": 33.22319,
            "longitude": 43.679291,
            "name": "Iraq",
            "country": "IQ"
        },
        {
            "latitude": 14.457474,
            "longitude": -14.358636,
            "name": "Senegal",
            "country": "SN",
            "id": "b9p1JhVml3GGC7iiPmKv"
        },
        {
            "latitude": -0.0236,
            "longitude": 37.9062,
            "name": "Kenya",
            "country": "KE",
            "id": "bVHiTolbUJGHIeVht3eG"
        },
        {
            "latitude": 39.561889,
            "longitude": -74.672169,
            "name": "New Jersey",
            "country": "US",
            "id": "bYp4RRHv19M7lYtSzQeV"
        },
        {
            "id": "bdqD4kpdqGgUaX70Tm2Q",
            "latitude": 3.139,
            "longitude": 101.6869,
            "name": "Malaysia",
            "country": "MY"
        },
        {
            "longitude": 18.643501,
            "name": "Sweden",
            "country": "SE",
            "id": "bignnyt2A8BBx8VNo32p",
            "latitude": 60.128162
        },
        {
            "id": "cCGmFmwHOoBrEpvG3qBP",
            "latitude": 40.973765,
            "longitude": 20.010162,
            "name": "Albania",
            "country": "AL"
        },
        {
            "id": "cIbchhSBTuxXmXYgpkdB",
            "latitude": 16.871311,
            "longitude": 96.199379,
            "name": "Myanmar",
            "country": "MM"
        },
        {
            "latitude": -25.953724,
            "longitude": 32.588711,
            "name": "Mozambique",
            "country": "MZ",
            "id": "cO8TChMvQvAtoZMNurTQ"
        },
        {
            "latitude": 46.8625,
            "longitude": 103.8467,
            "name": "Mongolia",
            "country": "MN",
            "id": "cPxONYsVo6BgvCW9HUeQ"
        },
        {
            "latitude": 64.963051,
            "longitude": -19.020836,
            "name": "Iceland",
            "country": "IS",
            "id": "cPxe7nsRnOf6aOPqHElJ"
        },
        {
            "latitude": 31.046051,
            "longitude": 34.851612,
            "name": "Israel",
            "country": "IL",
            "id": "cX891t0ONLNFj0MYq6La"
        },
        {
            "latitude": 4.749531,
            "longitude": -53.112909,
            "name": "Guyane",
            "country": "FR",
            "id": "cc7s6hYGQ2MovBBBgkKb"
        },
        {
            "longitude": -6.9118,
            "name": "Faeroe Islands",
            "country": "FO",
            "id": "cgzd5EM8PZv5ziJtTz1w",
            "latitude": 61.8926
        },
        {
            "latitude": 41.2033,
            "longitude": -77.1945,
            "name": "Pennsylvania",
            "country": "US",
            "id": "chj2FF3zb4Xxcop9RHre"
        },
        {
            "latitude": 45.7087,
            "longitude": 0.6269,
            "name": "Nouvelle-Aquitaine",
            "country": "FR",
            "id": "cpf3Y5PQTYywIm3PrpIQ"
        },
        {
            "id": "d0ExINgPaWUBm3l4ioJL",
            "latitude": 40.463669,
            "longitude": -3.74922,
            "name": "Spain",
            "country": "ES"
        },
        {
            "latitude": 42.50837,
            "longitude": 1.517155,
            "name": "Andorra",
            "country": "AD",
            "id": "dedMXSYR2k92wkSXNZqn"
        },
        {
            "latitude": 38.831163,
            "longitude": -75.375673,
            "name": "Delaware",
            "country": "US",
            "id": "dzCgqYduzyncjNKU9z6G"
        },
        {
            "latitude": 38.9637,
            "longitude": 35.2433,
            "name": "Turkey",
            "country": "TR",
            "id": "dzIcCaUZlbIXuRw0SyDE"
        },
        {
            "id": "e3BtI12qbqhE8jypOoZu",
            "latitude": 47.516232,
            "longitude": 14.550072,
            "name": "Austria",
            "country": "AT"
        },
        {
            "latitude": 52.6367,
            "longitude": 9.8451,
            "name": "Niedersachsen",
            "country": "DE",
            "id": "e3CJgTO8wVbBQZaxqNze"
        },
        {
            "latitude": 41.097481,
            "longitude": 122.310669,
            "name": "Liaoning",
            "country": "CN",
            "id": "e7P83iImanpd9r36oXK3"
        },
        {
            "latitude": 31.230391,
            "longitude": 121.473701,
            "name": "Shanghai",
            "country": "CN",
            "id": "e9pQqQa7CEblCYoDtfKo"
        },
        {
            "latitude": 42.407211,
            "longitude": -71.382439,
            "name": "Massachusetts",
            "country": "US",
            "id": "eCKDGssww4pF7NrxOySu"
        },
        {
            "id": "eLgKPNUwYM5MNDAtF6ql",
            "latitude": 43.740451,
            "longitude": 7.432032,
            "name": "Monaco",
            "country": "MC"
        },
        {
            "id": "ejrjMKfHexGnK52FS9Aa",
            "latitude": 47.2805,
            "longitude": 4.9994,
            "name": "Bourgogne-Franche-Comté",
            "country": "FR"
        },
        {
            "id": "etrmrftkQg6Kbd9seAga",
            "latitude": 48.0196,
            "longitude": 66.9237,
            "name": "Kazakhstan",
            "country": "KZ"
        },
        {
            "latitude": 30.14208,
            "longitude": 102.960701,
            "name": "Sichuan",
            "country": "CN",
            "id": "eyK5bxFkwdoAouIBvLFM"
        },
        {
            "id": "f9kmlhYtc3WA3kjbWszW",
            "latitude": 21.473534,
            "longitude": 55.975414,
            "name": "Oman",
            "country": "OM"
        },
        {
            "longitude": 13.2017,
            "name": "Sachsen",
            "country": "DE",
            "id": "fGqVm2khm3IBRs709S1f",
            "latitude": 51.1045
        },
        {
            "latitude": 47,
            "longitude": 2,
            "name": "Région non communiquée",
            "country": "FR",
            "id": "fIp76gl05LhZ0aOxUbhz"
        },
        {
            "latitude": 15.4542,
            "longitude": 18.7322,
            "name": "Chad",
            "country": "TD",
            "id": "fJc9CaZGR1OCHaW8Tn4V"
        },
        {
            "id": "fK06AziL8wyrcoz7rsmJ",
            "latitude": 31.295929,
            "longitude": 36.691952,
            "name": "Jordan",
            "country": "JO"
        },
        {
            "latitude": 27.716933,
            "longitude": -81.555239,
            "name": "Florida",
            "country": "US",
            "id": "fNganaGVPifA4QahEQPS"
        },
        {
            "id": "fNnE9CD0SttEVrCUo1Ym",
            "latitude": 35.452016,
            "longitude": 139.664285,
            "name": "Diamond Princess (Cruise)",
            "country": "ZZ"
        },
        {
            "longitude": 11.1211,
            "name": "P.A. Trento",
            "country": "IT",
            "id": "fOlU5JggPKOO8jbHh5GD",
            "latitude": 46.0679
        },
        {
            "id": "ffKhENYKy3bwsyBLiYtE",
            "latitude": 52.52,
            "longitude": 13.405,
            "name": "Berlin",
            "country": "DE"
        },
        {
            "latitude": 31.160629,
            "longitude": 112.255402,
            "name": "Hubei",
            "country": "CN",
            "id": "fiJ14DCxw15e3SMemh8R"
        },
        {
            "id": "flbZ2kaR5kBuV8XZ2Nsu",
            "latitude": 50.4501,
            "longitude": 30.5234,
            "name": "Ukraine",
            "country": "UA"
        },
        {
            "id": "fst48lrFxiMJbQPf4nur",
            "latitude": 41.2044,
            "longitude": 74.7661,
            "name": "Kyrgyzstan",
            "country": "KG"
        },
        {
            "id": "g0lRMtEJbucWIGqSPn0I",
            "latitude": 52.132633,
            "longitude": 5.291266,
            "name": "Netherlands",
            "country": "NL"
        },
        {
            "latitude": 34.69522,
            "longitude": -92.288012,
            "name": "Arkansas",
            "country": "US",
            "id": "gIdgxJZfTl2QOSYEwMAz"
        },
        {
            "latitude": 4.8604159,
            "longitude": -58.9301796,
            "name": "Guyana",
            "country": "GY",
            "id": "gXd2X2PjmGP0XVwxpWqT"
        },
        {
            "latitude": 43.9695,
            "longitude": -99.9018,
            "name": "South Dakota",
            "country": "US",
            "id": "gYDsNgvuvtbg8t77w6FS"
        },
        {
            "latitude": 35.894231,
            "longitude": 14.432846,
            "name": "Malta",
            "country": "MT",
            "id": "h9UqxYZ5xC4JZrmdDz0q"
        },
        {
            "id": "hqwsh1rmvkWI3LFUVuMk",
            "latitude": 28.7041,
            "longitude": 77.1025,
            "name": "Delhi",
            "country": "IN"
        },
        {
            "id": "iGkTscdD0XyHFSP23Qrp",
            "latitude": 35.751835,
            "longitude": 104.28611,
            "name": "Gansu",
            "country": "CN"
        },
        {
            "longitude": 38.9968,
            "name": "Syria",
            "country": "SY",
            "id": "iHf1IZQP3CA3sT2erzyh",
            "latitude": 34.8021
        },
        {
            "latitude": 10.8505,
            "longitude": 76.2711,
            "name": "Kerala",
            "country": "IN",
            "id": "idymmgoqLHImnBdyC7r7"
        },
        {
            "latitude": -25.2744,
            "longitude": 133.7751,
            "name": "Unknown Australian state",
            "country": "AU",
            "id": "iwcBlwhnL6MDiXogzf8g"
        },
        {
            "latitude": 16.265,
            "longitude": -61.551,
            "name": "Guadeloupe",
            "country": "FR",
            "id": "j8eMjjqNAqHAJhAKdBYN"
        },
        {
            "latitude": 50.1183,
            "longitude": 7.309,
            "name": "Rheinland-Pfalz",
            "country": "DE",
            "id": "jKn2pIFlIBScjb47GjRX"
        },
        {
            "latitude": 39.343357,
            "longitude": 117.361649,
            "name": "Tianjin",
            "country": "CN",
            "id": "jMlHjIOb7eMPSxFBrmG1"
        },
        {
            "id": "jOc8JUDWxCmquh49oZxV",
            "latitude": 17.1898766,
            "longitude": -88.4976501,
            "name": "Belize",
            "country": "BZ"
        },
        {
            "id": "jPC0eOG50FWknCDe3K6P",
            "latitude": 44.5588,
            "longitude": -72.5778,
            "name": "Vermont",
            "country": "US"
        },
        {
            "latitude": 53.3498,
            "longitude": -6.2603,
            "name": "Ireland",
            "country": "IE",
            "id": "jpVXEDCyfyq26gPoCtHL"
        },
        {
            "id": "kF99avagXvBfZTHv9ETi",
            "latitude": 40.078072,
            "longitude": 9.283447,
            "name": "Sardegna",
            "country": "IT"
        },
        {
            "longitude": 43.145645,
            "name": "Djibouti",
            "country": "DJ",
            "id": "l4nYeaqwy2yrEVqnijFj",
            "latitude": 11.572076
        },
        {
            "latitude": 44.0682,
            "longitude": -114.742,
            "name": "Idaho",
            "country": "US",
            "id": "l7fHSKOmcaRX3tq9FCT6"
        },
        {
            "id": "lAKH5Wfg4GhaM54VElFN",
            "latitude": 40.816666,
            "longitude": 16.549999,
            "name": "Puglia",
            "country": "IT"
        },
        {
            "latitude": 10.6918,
            "pop": 1369000,
            "name": "Trinidad and Tobago",
            "country": "TT",
            "id": "lfLdfRP7hyiA6MVnQqqn"
        },
        {
            "latitude": 16.5388,
            "longitude": -23.0418,
            "name": "Cape Verde",
            "country": "CV",
            "id": "lgqPuia1S3ApA5Lsl2la"
        },
        {
            "id": "lhPjpn6CzqTRDN0RW8uE",
            "latitude": 42.524635,
            "longitude": 87.539589,
            "name": "Xinjiang",
            "country": "CN"
        },
        {
            "latitude": 3.2028,
            "longitude": 73.2207,
            "name": "Maldives",
            "country": "MV",
            "id": "m45gI2UbWMuTrOnTtp9k"
        },
        {
            "id": "mF7rVMdVnazAuw8G22xs",
            "latitude": 41.9029,
            "longitude": 12.4534,
            "name": "Vatican City",
            "country": "VA"
        },
        {
            "id": "mJtdLs4ub6CkcAOeMWUm",
            "latitude": 19.7515,
            "longitude": 75.7139,
            "name": "Maharashtra",
            "country": "IN"
        },
        {
            "longitude": -70.6693,
            "name": "Chile",
            "country": "CL",
            "id": "mSACWVbCy5QE7ciLA93J",
            "latitude": -33.4489
        },
        {
            "longitude": 34.8888,
            "name": "Tanzania",
            "country": "TZ",
            "id": "mnew3ojzmWV0dWSPfCQ9",
            "latitude": -6.369
        },
        {
            "id": "n6OSwOVBdUie3xeZJmOf",
            "latitude": 15.1794,
            "longitude": 39.7823,
            "name": "Eritrea",
            "country": "ER"
        },
        {
            "latitude": 35.693323,
            "longitude": -86.605748,
            "name": "Tennessee",
            "country": "US",
            "id": "nLhJXE2apq8yNNj363ai"
        },
        {
            "latitude": -4.6796,
            "longitude": 55.492,
            "name": "Seychelles",
            "country": "SC",
            "id": "oB5fSyjWJ0FbNAkssuci"
        },
        {
            "latitude": 31.893778,
            "longitude": -6.196132,
            "name": "Morocco",
            "country": "MA",
            "id": "oJ5vSDE9vgXC2PG8LElp"
        },
        {
            "id": "ofWLu9EuQoK2nHjwU1mA",
            "latitude": 50.4801,
            "longitude": 2.7937,
            "name": "Hauts-de-France",
            "country": "FR"
        },
        {
            "longitude": 77.1734,
            "name": "Himachal Pradesh",
            "country": "IN",
            "id": "oqLEd2Z9P3FJeQsfIk8e",
            "latitude": 31.1048
        },
        {
            "id": "oxz2l1rJipCsfMfy8Mmk",
            "latitude": -20.917574,
            "longitude": 142.702789,
            "name": "Queensland",
            "country": "AU"
        },
        {
            "longitude": 128.738235,
            "name": "Heilongjiang",
            "country": "CN",
            "id": "p1aZboN4BtRJe7hPl8cw",
            "latitude": 47.121647
        },
        {
            "latitude": 32.026379,
            "longitude": 117.252747,
            "name": "Anhui",
            "country": "CN",
            "id": "pFhBwPnGGpQ6DLppJ6YS"
        },
        {
            "longitude": 45.318161,
            "name": "Somalia",
            "country": "SO",
            "id": "pHrUAOBW5WDdMsVWpEEi",
            "latitude": 2.046934
        },
        {
            "latitude": 21.2787,
            "longitude": 81.8661,
            "name": "Chhattisgarh",
            "country": "IN",
            "id": "pu6AXEsDnpmmqnhajobN"
        },
        {
            "id": "q5cfvHprVTraL1yXnhDx",
            "latitude": 38.9072,
            "longitude": -77.0369,
            "name": "Washington, D.C.",
            "country": "US"
        },
        {
            "longitude": 123.325947,
            "name": "Western Australia",
            "country": "AU",
            "id": "qnQ0dkxAxnDP01YpdZgk",
            "latitude": -26.190439
        },
        {
            "id": "qpAxVz0garcS0gNZxtOw",
            "latitude": 50.503887,
            "longitude": 4.469936,
            "name": "Belgium",
            "country": "BE"
        },
        {
            "latitude": 39,
            "longitude": -80.5,
            "name": "West Virginia",
            "country": "US",
            "id": "qrYN2o4c4gAK3ffF5JIw"
        },
        {
            "id": "qsrWiq0qCmIG66hpWojP",
            "latitude": 31,
            "longitude": -100,
            "name": "Texas",
            "country": "US"
        },
        {
            "id": "qyX9xXEuKg3co8yKe3Fl",
            "latitude": 43.9352,
            "longitude": 6.0679,
            "name": "Provence-Alpes-Côte d’Azur",
            "country": "FR"
        },
        {
            "latitude": 30.9843,
            "longitude": -91.9623,
            "name": "Louisiana",
            "country": "US",
            "id": "qzuktS0qQVU4PEookjss"
        },
        {
            "longitude": 92.9376,
            "name": "Mizoram",
            "country": "IN",
            "id": "r54PtV0VHsIOc0YPTyhd",
            "latitude": 23.1645
        },
        {
            "latitude": 12.5211,
            "longitude": -69.9683,
            "name": "Aruba",
            "country": "AW",
            "id": "rKbrli0DkAmp1UpbrqHQ"
        },
        {
            "id": "rKnSEyG03ak4YmGzonlg",
            "latitude": 14.058324,
            "longitude": 108.277199,
            "name": "Vietnam",
            "country": "VN"
        },
        {
            "latitude": 1.6508009,
            "longitude": 10.2678947,
            "name": "Equatorial Guinea",
            "country": "GQ",
            "id": "rS04qvFoAknfeZsL2w5f"
        },
        {
            "id": "rUQ6Z3pmWTPVlqEUSmN7",
            "latitude": -12.8275,
            "longitude": 45.1662,
            "name": "Mayotte",
            "country": "FR"
        },
        {
            "longitude": 120.326447,
            "name": "Zhejiang",
            "country": "CN",
            "id": "rgBVJ4hPofqjjchnroiY",
            "latitude": 29.159849
        },
        {
            "id": "rqbHQdev461heM0vyE9L",
            "latitude": 45.734955,
            "longitude": 7.313076,
            "name": "Valle d'Aosta",
            "country": "IT"
        },
        {
            "longitude": 8.468946,
            "name": "Norway",
            "country": "NO",
            "id": "rxSafpWsyKhfkV0HTtb4",
            "latitude": 60.472023
        },
        {
            "latitude": 53.9333,
            "longitude": -116.5765,
            "name": "Alberta",
            "country": "CA",
            "id": "sBFMOzZJdrdXdyLZpweO"
        },
        {
            "id": "sKNhMvgXeyivpNFg02RA",
            "latitude": 19.566395,
            "longitude": 109.949684,
            "name": "Hainan",
            "country": "CN"
        },
        {
            "longitude": -75.630295,
            "name": "Peru",
            "country": "PE",
            "id": "sLL1jETcJYjT6g5bfcEG",
            "latitude": -10.33755
        },
        {
            "id": "sgsBhTwHxF1VVnqXbXXp",
            "latitude": 37.89566,
            "longitude": 114.904221,
            "name": "Hebei",
            "country": "CN"
        },
        {
            "id": "sjW9OwjFqrOvjVHRXWoR",
            "latitude": 42.3154,
            "longitude": 43.3569,
            "name": "Georgia",
            "country": "GE"
        },
        {
            "latitude": -23.4425,
            "longitude": -58.4438,
            "name": "Paraguay",
            "country": "PY",
            "id": "t2fq7L9UcXfhuXfQNVRj"
        },
        {
            "latitude": 39.147061,
            "longitude": -111.596466,
            "name": "Utah",
            "country": "US",
            "id": "tSmr8vNsiDhhpXMSBsms"
        },
        {
            "id": "tdNRDDrgvBQqqwzdFGh4",
            "latitude": 27.3818,
            "longitude": 111.510681,
            "name": "Hunan",
            "country": "CN"
        },
        {
            "latitude": 26.842964,
            "longitude": 107.290283,
            "name": "Guizhou",
            "country": "CN",
            "id": "tyY4QSHWG9sXqSO9jm0Y"
        },
        {
            "latitude": -20.2067,
            "longitude": 57.6755,
            "name": "Mauritius",
            "country": "MU",
            "id": "uZg9Xtu4zR5tp12TMpOQ"
        },
        {
            "longitude": 76.0856,
            "name": "Haryana",
            "country": "IN",
            "id": "ubUuY89n0cXVgahI4Ytp",
            "latitude": 29.0588
        },
        {
            "latitude": 41.6667,
            "longitude": 14.5,
            "name": "Molise",
            "country": "IT",
            "id": "ueDdQxnY3NvbnoCcPaDH"
        },
        {
            "latitude": 32.93708,
            "longitude": 119.151932,
            "name": "Jiangsu",
            "country": "CN",
            "id": "uvxN28EpGmRq3K9REtBP"
        },
        {
            "longitude": 11.6923,
            "name": "Sachsen-Anhalt",
            "country": "DE",
            "id": "uxAceZxiizwmo60pyyGn",
            "latitude": 51.9503
        },
        {
            "longitude": 76.5762,
            "name": "Jammu and Kashmir",
            "country": "IN",
            "id": "v5wfBhxjYTpTMaKko6AW",
            "latitude": 33.7782
        },
        {
            "latitude": 26.820553,
            "longitude": 30.802498,
            "name": "Egypt",
            "country": "EG",
            "id": "v8JcH4FHH7BDpJlNNHjv"
        },
        {
            "latitude": 47.288374,
            "longitude": -119.928431,
            "name": "Washington",
            "country": "US",
            "id": "vCUVQn7RK8pkw5y2rvYN"
        },
        {
            "latitude": 18.1096,
            "longitude": -77.2975,
            "name": "Jamaica",
            "country": "JM",
            "id": "vMGALmMJbagxGIbLyFfS"
        },
        {
            "longitude": -86.9023,
            "name": "Alabama",
            "country": "US",
            "id": "vSMJR4m49MZM15umlC9B",
            "latitude": 32.3182
        },
        {
            "longitude": 2.637,
            "name": "Ile-de-France",
            "country": "FR",
            "id": "vSwFXxTSLgzsG25zOJUy",
            "latitude": 48.8499
        },
        {
            "longitude": -63.4168,
            "name": "Prince Edward Island",
            "country": "CA",
            "id": "vjK6292ALJl5wq8XHw3P",
            "latitude": 46.5107
        },
        {
            "longitude": 53.688046,
            "name": "Iran",
            "country": "IR",
            "id": "vkkXVaqUswO5JsMZx0mX",
            "latitude": 32.42791
        },
        {
            "id": "wCnlOr8oX3DlF0otQrFc",
            "latitude": 53.7609,
            "longitude": -98.8139,
            "name": "Manitoba",
            "country": "CA"
        },
        {
            "latitude": -34.6037,
            "longitude": -58.3816,
            "name": "Argentina",
            "country": "AR",
            "id": "wEl0cjiA6OcZiI9kaSsF"
        },
        {
            "latitude": 44.3148,
            "longitude": -85.6024,
            "name": "Michigan",
            "country": "US",
            "id": "wgRwpPMGBaKLAl1xo1C7"
        },
        {
            "latitude": 21.287261,
            "longitude": -157.838954,
            "name": "Hawaii",
            "country": "US",
            "id": "wi47s9vKxiMqxfgurj3B"
        },
        {
            "latitude": 41.9,
            "longitude": 12.7167,
            "name": "Lazio",
            "country": "IT",
            "id": "wj8SKMWy2gkQBhGU3R3L"
        },
        {
            "latitude": 34.08267,
            "longitude": 35.918113,
            "name": "Lebanon",
            "country": "LB",
            "id": "xFgM48q8JxVPfvQLQDNb"
        },
        {
            "longitude": 8.675277,
            "name": "Nigeria",
            "country": "NG",
            "id": "xHWPTTpNHEwWv6MqfxP5",
            "latitude": 9.081999
        },
        {
            "latitude": 47.5515,
            "longitude": -101.002,
            "name": "North Dakota",
            "country": "US",
            "id": "xQpNodSQfHNHAtG9Onnj"
        },
        {
            "longitude": -89.5,
            "name": "Wisconsin",
            "country": "US",
            "id": "xSHgaJlyPxHFWB6hhyng",
            "latitude": 44.5
        },
        {
            "latitude": 9.145,
            "longitude": 40.4897,
            "name": "Ethiopia",
            "country": "ET",
            "id": "xY69Nr3VSiZCwD2Qp0SD"
        },
        {
            "latitude": -18.7669468,
            "longitude": 46.8691063,
            "name": "Madagascar",
            "country": "MG",
            "id": "xsmRrvV8VRC9SyYWK6ig"
        },
        {
            "latitude": -22.95763,
            "longitude": 18.4904,
            "name": "Namibia",
            "country": "NA",
            "id": "xtX46kxBlEapOMdD1Emh"
        },
        {
            "longitude": 8.8017,
            "name": "Bremen",
            "country": "DE",
            "id": "y0d3PQgXJXdKsxweTIWv",
            "latitude": 53.0793
        },
        {
            "latitude": -17.6797,
            "longitude": -149.4068,
            "name": "Polynésie française",
            "country": "PF",
            "id": "yOfFKDRrscqcZ85WMRqF"
        },
        {
            "latitude": 37.5,
            "longitude": 15.090278,
            "name": "Sicilia",
            "country": "IT",
            "id": "yYMgPL4mCWnsSYZdqnAj"
        },
        {
            "id": "z0KDu61I2qPILneW2Lih",
            "latitude": 12.1696,
            "longitude": -68.99,
            "name": "Curaçao",
            "country": "CW"
        },
        {
            "latitude": 46.5653,
            "longitude": -66.4619,
            "name": "New Brunswick",
            "country": "CA",
            "id": "z1Vx0y33oMGoeJSuS8Ui"
        },
        {
            "latitude": -1.831239,
            "longitude": -78.183403,
            "name": "Ecuador",
            "country": "EC",
            "id": "zC03Urt1iJJb2Tf6p0jd"
        },
        {
            "latitude": 15.870032,
            "longitude": 100.992538,
            "name": "Thailand",
            "country": "TH",
            "id": "zvdC0u72Bk5YKNaazZFZ"
        },
        {
            "id": "zyxFwuiyCJHhRyNEg60C",
            "latitude": 44.0165,
            "longitude": 21.0059,
            "name": "Serbia",
            "country": "RS"
        }
    ]
}